Clk,736243792,18,1258673792000000000,,-2228,-0.16336582298208668,333.564095198152,-583.3559028359546,0.0,0,736243792
Raw,1,5,1.57542003E9,220.0,1,536005,400,-445.24208616348915,0.1,0,0.0,0.0,0.0,0,,,5
Clk,736244757,18,1258673793000000000,,-2228,-0.16336582298208668,333.564095198152,-583.3559028359546,0.0,0,736244757
Raw,1,5,1.57542003E9,220.0,3,7537915,400,-443.2067689660471,0.1,0,0.0,0.0,0.0,0,,,5
Clk,736245760,18,1258673794000000000,,-2228,-0.16336582298208668,333.564095198152,-583.3559028359546,0.0,0,736245761
Raw,1,5,1.57542003E9,220.0,3,7539296,10,-443.38332396000624,0.1,0,0.0,0.0,32.0,0,,,5
Clk,736246787,18,1258673795000000000,,-2228,-0.16336582298208668,333.564095198152,-583.3559028359546,0.0,0,736246787
Raw,1,5,1.57542003E9,220.0,3,7540799,25,-443.40196641278453,0.1,0,0.0,0.0,26.0,0,,,5
Raw,1,25,1.57542003E9,220.0,1,166829,400,229.54781090375036,0.1,0,0.0,0.0,0.0,0,,,25
Clk,736247766,18,1258673796000000000,,-2228,-0.16336582298208668,333.564095198152,-583.3559028359546,0.0,0,736247766
Raw,1,5,1.57542003E9,220.0,3,7542292,25,-443.53575342684053,0.1,0,0.0,0.0,24.0,0,,,5
Raw,1,25,1.57542003E9,220.0,1,166014,400,229.54781090375036,0.1,0,0.0,0.0,0.0,0,,,25
Clk,736248797,18,1258673797000000000,,-2228,-0.16336582298208668,333.564095198152,-583.3559028359546,0.0,0,736248797
Raw,1,5,1.57542003E9,220.0,3,7543773,25,-443.7265644141007,0.1,0,0.0,0.0,24.0,0,,,5
Raw,1,25,1.57542003E9,220.0,1,165200,400,229.54781090375036,0.1,0,0.0,0.0,0.0,0,,,25
Clk,736249807,18,1258673798000000000,,-2228,-0.16336582298208668,333.564095198152,-583.3559028359546,0.0,0,736249807
Raw,1,5,1.57542003E9,220.0,3,7545244,25,-443.87241419171914,0.1,0,0.0,0.0,24.0,0,,,5
Raw,1,25,1.57542003E9,220.0,1,164548,400,229.54781090375036,0.1,0,0.0,0.0,0.0,0,,,25
Clk,736250756,18,1258673799000000000,,-2228,-0.16336582298208668,333.564095198152,-583.3559028359546,0.0,0,736250756
Raw,1,5,1.57542003E9,220.0,3,7546718,25,-443.5214974335395,0.1,0,0.0,0.0,24.0,0,,,5
Clk,736251808,18,1258673800000000000,,-2228,-0.16336582298208668,333.564095198152,-583.3559028359546,0.0,0,736251808
Raw,1,5,1.57542003E9,220.0,7,3927548194,10,-443.2659861689899,0.1,0,0.0,0.0,29.0,0,,,5
Clk,736252792,18,1258673803822549504,,-2228,-0.16336582298208668,333.564095198152,-583.3559028359546,0.0,0,736252793
Raw,1,5,1.57542003E9,220.0,16399,85003747549668,10,-443.2385707972571,0.1,0,0.0,0.0,29.0,0,,,5
Clk,736253772,18,1258673804822549504,,-2228,-0.16336582298208668,333.564095198152,-583.3559028359546,0.0,0,736253772
Raw,1,5,1.57542003E9,220.0,16399,85004747551145,25,-443.3416525949724,0.1,0,0.0,0.0,26.0,0,,,5
Clk,736254772,18,1258673805822549504,,-2228,-0.16336582298208668,333.564095198152,-583.3559028359546,0.0,0,736254772
Raw,1,5,1.57542003E9,220.0,3,7552627,25,-443.4370580886025,0.1,0,0.0,0.0,22.0,0,,,5
Clk,736255763,18,1258673806822549504,,-2228,-0.16336582298208668,333.564095198152,-583.3559028359546,0.0,0,736255763
Raw,1,5,1.57542003E9,220.0,3,7554088,25,-443.2736624730751,0.1,0,0.0,0.0,22.0,0,,,5
Clk,736256761,18,1258673807822549504,,-2228,-0.16336582298208668,333.564095198152,-583.3559028359546,0.0,0,736256761
Raw,1,5,1.57542003E9,220.0,3,7555580,25,-443.111363472417,0.1,0,0.0,0.0,25.0,0,,,5
Clk,736257795,18,1258673808822549504,,-2228,-0.16336582298208668,333.564095198152,-583.3559028359546,0.0,0,736257795
Raw,1,5,1.57542003E9,220.0,3,7557059,10,-442.96332046505995,0.1,0,0.0,0.0,32.0,0,,,5
Clk,736258764,18,1258673809822549504,,-2228,-0.16336582298208668,333.564095198152,-583.3559028359546,0.0,0,736258764
Raw,1,5,1.57542003E9,220.0,3,7558539,10,-442.5926646392327,0.1,0,0.0,0.0,30.0,0,,,5
Clk,736259765,18,1258673810822549504,,-2228,-0.16336582298208668,333.564095198152,-583.3559028359546,0.0,0,736259765
Raw,1,5,1.57542003E9,220.0,3,7560013,10,-442.259293718962,0.1,0,0.0,0.0,29.0,0,,,5
Clk,736260763,18,1258673811822549504,,-2228,-0.16336582298208668,333.564095198152,-583.3559028359546,0.0,0,736260763
Raw,1,5,1.57542003E9,220.0,3,7561488,25,-442.18801375245675,0.1,0,0.0,0.0,25.0,0,,,5
Clk,736261762,18,1258673812822549504,,-2228,-0.16336582298208668,333.564095198152,-583.3559028359546,0.0,0,736261762
Raw,1,5,1.57542003E9,220.0,3,7562968,10,-442.0948014885653,0.1,0,0.0,0.0,28.0,0,,,5
Clk,736262769,18,1258673813822549504,,-2228,-0.16336582298208668,333.564095198152,-583.3559028359546,0.0,0,736262769
Raw,1,5,1.57542003E9,220.0,3,7564433,25,-442.12221686029807,0.1,0,0.0,0.0,25.0,0,,,5
Clk,736263755,18,1258673814822549504,,-2228,-0.16336582298208668,333.564095198152,-583.3559028359546,0.0,0,736263755
Raw,1,5,1.57542003E9,220.0,7,747565901,10,-441.9215363392141,0.1,0,0.0,0.0,29.0,0,,,5
Clk,736264766,18,1258673815822549504,,-2228,-0.16336582298208668,333.564095198152,-583.3559028359546,0.0,0,736264766
Raw,1,5,1.57542003E9,220.0,16399,85015747567372,10,-441.71646935865283,0.1,0,0.0,0.0,31.0,0,,,5
Clk,736265764,18,1258673816822549504,,-2228,-0.16336582298208668,333.564095198152,-583.3559028359546,0.0,0,736265764
Raw,1,5,1.57542003E9,220.0,3,7568847,25,-441.3129150867462,0.1,0,0.0,0.0,22.0,0,,,5
Clk,736266771,18,1258673817822549504,,-2228,-0.16336582298208668,333.564095198152,-583.3559028359546,0.0,0,736266771
Raw,1,5,1.57542003E9,220.0,3,7570301,25,-441.08701242366806,0.1,0,0.0,0.0,23.0,0,,,5
Clk,736267773,18,1258673818822549504,,-2228,-0.16336582298208668,333.564095198152,-583.3559028359546,0.0,0,736267773
Raw,1,5,1.57542003E9,220.0,3,7571774,25,-441.0913988831453,0.1,0,0.0,0.0,21.0,0,,,5
Raw,1,26,1.57542003E9,220.0,1,503910,400,-710.75118847657,0.1,0,0.0,0.0,0.0,0,,,26
Clk,736268775,18,1258673819822549504,,-2228,-0.16336582298208668,333.564095198152,-583.3559028359546,0.0,0,736268775
Raw,1,5,1.57542003E9,220.0,3,7573248,25,-441.1319736333098,0.1,0,0.0,0.0,24.0,0,,,5
Raw,1,26,1.57542003E9,220.0,1,506353,400,-710.75118847657,0.1,0,0.0,0.0,0.0,0,,,26
Clk,736269775,18,1258673820822549504,,-2228,-0.16336582298208668,333.564095198152,-583.3559028359546,0.0,0,736269776
Raw,1,5,1.57542003E9,220.0,3,7574725,10,-441.22957235667855,0.1,0,0.0,0.0,33.0,0,,,5
Raw,1,26,1.57542003E9,220.0,1,508634,400,-710.75118847657,0.1,0,0.0,0.0,0.0,0,,,26
Clk,736270772,18,1258673821822549504,,-2228,-0.16336582298208668,333.564095198152,-583.3559028359546,0.0,0,736270772
Raw,1,5,1.57542003E9,220.0,3,7576205,10,-441.23066897154786,0.1,0,0.0,0.0,29.0,0,,,5
Raw,1,26,1.57542003E9,220.0,1,511078,400,-710.75118847657,0.1,0,0.0,0.0,0.0,0,,,26
Clk,736271761,18,1258673822822549504,,-2228,-0.16336582298208668,333.564095198152,-583.3559028359546,0.0,0,736271761
Raw,1,5,1.57542003E9,220.0,3,7577672,25,-441.15171270095743,0.1,0,0.0,0.0,21.0,0,,,5
Raw,1,26,1.57542003E9,220.0,1,513359,400,-710.75118847657,0.1,0,0.0,0.0,0.0,0,,,26
Clk,736272798,18,1258673823822549504,,-2228,-0.16336582298208668,333.564095198152,-583.3559028359546,0.0,0,736272798
Raw,1,5,1.57542003E9,220.0,3,7579146,10,-441.3699390599504,0.1,0,0.0,0.0,32.0,0,,,5
Raw,1,26,1.57542003E9,220.0,3,13515584,10,-706.9514179544058,0.1,0,0.0,0.0,34.0,0,,,26
Raw,1,12,1.57542003E9,220.0,1,229553,400,433.7758810899686,0.1,0,0.0,0.0,0.0,0,,,12
Clk,736273804,18,1258673824822549504,,-2228,-0.16336582298208668,333.564095198152,-583.3559028359546,0.0,0,736273804
Raw,1,5,1.57542003E9,220.0,3,7580623,10,-441.188997606514,0.1,0,0.0,0.0,31.0,0,,,5
Raw,1,26,1.57542003E9,220.0,3,13517998,10,-706.5467670676298,0.1,0,0.0,0.0,31.0,0,,,26
Raw,1,16,1.57542003E9,220.0,1,79667,400,-805.0940622983035,0.1,0,0.0,0.0,0.0,0,,,16
Raw,1,12,1.57542003E9,220.0,1,228250,400,433.7758810899686,0.1,0,0.0,0.0,0.0,0,,,12
Clk,736274786,18,1258673825822549504,,-2228,-0.16336582298208668,333.564095198152,-583.3559028359546,0.0,0,736274786
Raw,1,5,1.57542003E9,220.0,3,7582097,25,-441.07714288984425,0.1,0,0.0,0.0,27.0,0,,,5
Raw,1,26,1.57542003E9,220.0,3,13520364,10,-706.3625357695855,0.1,0,0.0,0.0,35.0,0,,,26
Raw,1,16,1.57542003E9,220.0,3,6082450,25,-805.9976729506161,0.1,0,0.0,0.0,26.0,0,,,16
Raw,1,12,1.57542003E9,220.0,1,226783,400,433.7758810899686,0.1,0,0.0,0.0,0.0,0,,,12
Clk,736275833,18,1258673826822549504,,-2228,-0.16336582298208668,333.564095198152,-583.3559028359546,0.0,0,736275833
Raw,1,5,1.57542003E9,220.0,3,7583569,25,-441.04643767350353,0.1,0,0.0,0.0,24.0,0,,,5
Raw,1,26,1.57542003E9,220.0,7,753522717,10,-706.473293871386,0.1,0,0.0,0.0,37.0,0,,,26
Raw,1,16,1.57542003E9,220.0,7,746085158,10,-807.1392490295693,0.1,0,0.0,0.0,29.0,0,,,16
Raw,1,12,1.57542003E9,220.0,1,225317,400,433.7758810899686,0.1,0,0.0,0.0,0.0,0,,,12
Raw,1,2,1.57542003E9,220.0,3,3931841,25,404.64979016105644,0.1,0,0.0,0.0,27.0,0,,,2
Raw,1,29,1.57542003E9,220.0,3,468948,25,11.776547081535682,0.1,0,0.0,0.0,27.0,0,,,29
Raw,1,31,1.57542003E9,220.0,3,18167047,10,-115.70164163131267,0.1,0,0.0,0.0,28.0,0,,,31
Clk,736276790,18,1258673827822549504,,-2228,-0.16336582298208668,333.564095198152,-583.3559028359546,0.0,0,736276791
Raw,1,5,1.57542003E9,220.0,3,7585049,25,-440.9269066527486,0.1,0,0.0,0.0,24.0,0,,,5
Raw,1,26,1.57542003E9,220.0,16399,85027753525070,10,-706.4864532498177,0.1,0,0.0,0.0,34.0,0,,,26
Raw,1,16,1.57542003E9,220.0,16399,85027746087840,10,-806.5931348246522,0.1,0,0.0,0.0,34.0,0,,,16
Raw,1,12,1.57542003E9,220.0,3,5223716,10,436.678620649036,0.1,0,0.0,0.0,31.0,0,,,12
Raw,1,2,1.57542003E9,220.0,3,3930358,10,403.58717035269365,0.1,0,0.0,0.0,30.0,0,,,2
Raw,1,29,1.57542003E9,220.0,3,468869,10,10.395908961072564,0.1,0,0.0,0.0,29.0,0,,,29
Raw,1,31,1.57542003E9,220.0,3,18167540,25,-117.76108435587958,0.1,0,0.0,0.0,27.0,0,,,31
Clk,736277836,18,1258673828822549504,,-5984525,-0.6874591270461679,333.564095198152,-605.316596368077,0.0,0,736277836
Raw,1,5,1.57542003E9,220.0,3,7586508,25,-440.8018925576471,0.1,0,0.0,0.0,25.0,0,,,5
Raw,1,26,1.57542003E9,220.0,16399,85028753527431,10,-706.4897430944256,0.1,0,0.0,0.0,30.0,0,,,26
Raw,1,16,1.57542003E9,220.0,16399,85028746090525,10,-806.5317243919708,0.1,0,0.0,0.0,35.0,0,,,16
Raw,1,12,1.57542003E9,220.0,3,5222322,10,437.1457785833627,0.1,0,0.0,0.0,28.0,0,,,12
Raw,1,2,1.57542003E9,220.0,3,3929051,10,403.8788699079305,0.1,0,0.0,0.0,28.0,0,,,2
Raw,1,25,1.57542003E9,220.0,3,17143012,400,230.5577931983862,0.1,0,0.0,0.0,12.0,0,,,25
Raw,1,29,1.57542003E9,220.0,3,468858,25,10.795076773501933,0.1,0,0.0,0.0,26.0,0,,,29
Raw,1,31,1.57542003E9,220.0,3,18167935,25,-117.10530866403133,0.1,0,0.0,0.0,27.0,0,,,31
